{
  "cities" : [
    {
      "name" : "Kyoto",
      "longitude" : 135.780822,
      "latitude" : 35.026244,
      "time_diff" : 9.0
    },
    {
      "name" : "Fukui",
      "longitude" : 136.219494,
      "latitude" : 36.064067,
      "time_diff" : 9.0
    },
    {
      "name" : "Tokyo",
      "longitude" : 139.761394,
      "latitude" : 35.71326,
      "time_diff" : 9.0
    },
    {
      "name" : "New York",
      "longitude" : -74.006390,
      "latitude" : 40.714170,
      "time_diff" : -5
    },
    {
      "name" : "Strasbourg",
      "longitude" : 7.731913,
      "latitude" : 48.652897,
      "time_diff" : 1
    }
  ]
}